{
  "data": [
    {
      "id": "1",
      "name": "nn",
      "timeZone": "Europe/Moscow",
      "city": "Nizhny Novgorod",
      "lat": "56327",
      "lon": "44007"
    },

    {
      "id": "2",
      "name": "msk",
      "timeZone": "Europe/Moscow",
      "city": "Moscow",
      "lat": "56327",
      "lon": "44007"
    },

    {
      "id": "3",
      "name": "ufa",
      "timeZone": "Asia/Yekaterinburg",
      "city": "Ufa",
      "lat": "56327",
      "lon": "44007"
    },

    {
      "id": "4",
      "name": "oren",
      "timeZone": "Asia/Yekaterinburg",
      "city": "Orenburg",
      "lat": "56327",
      "lon": "44007"
    },

    {
      "id": "5",
      "name": "kazan",
      "timeZone": "Europe/Moscow",
      "city": "Kazan",
      "lat": "56327",
      "lon": "44007"
    },

    {
      "id": "6",
      "name": "sterlitamak",
      "timeZone": "Asia/Yekaterinburg",
      "city": "Sterlitamak",
      "lat": "56327",
      "lon": "44007"
    },

    {
      "id": "7",
      "name": "putilkovo",
      "timeZone": "Europe/Moscow",
      "city": "putilkovo",
      "lat": "55838",
      "lon": "37374"
    },

    {
      "id": "8",
      "name": "odintsovo",
      "timeZone": "Europe/Moscow",
      "city": "odintsovo",
      "lat": "55678",
      "lon": "37263"
    },

    {
      "id": "8",
      "name": "lyubertsy",
      "timeZone": "Europe/Moscow",
      "city": "lyubertsy",
      "lat": "55679",
      "lon": "37894"
    }
  ]
}